City_ID,City,Lat,Lng,Max_temp,Humidity,Clouds,Wind,Country,Date
0,kutum,14.2,24.67,91.76,18,97,8.72,SD,1593359456
1,alyangula,-13.85,136.42,66.2,93,87,9.91,AU,1593359456
2,fortuna,40.6,-124.16,57.0,87,90,12.75,US,1593359456
3,ushuaia,-54.8,-68.3,35.6,69,75,19.46,AR,1593359278
4,manuk mangkaw,4.8,119.85,80.13,80,100,5.03,PH,1593359456
5,airai,-8.93,125.41,56.97,100,84,3.24,TL,1593359456
6,andenes,69.31,16.12,51.8,81,20,25.28,NO,1593359456
7,east london,-33.02,27.91,64.42,46,22,22.48,ZA,1593359456
8,busselton,-33.65,115.33,51.01,92,100,4.0,AU,1593359457
9,ilulissat,69.22,-51.1,41.0,80,75,5.82,GL,1593359457
10,rikitea,-23.12,-134.97,68.02,64,9,19.86,PF,1593359457
11,barrow,71.29,-156.79,46.4,75,1,8.05,US,1593359270
12,hamilton,39.18,-84.53,73.0,94,75,9.17,US,1593359217
13,albany,42.6,-73.97,69.01,98,21,2.39,US,1593359236
14,nsanje,-16.92,35.26,79.86,41,89,2.77,MW,1593359457
15,thompson,55.74,-97.86,57.2,100,90,9.17,CA,1593359457
16,qaanaaq,77.48,-69.36,43.79,63,29,4.5,GL,1593359457
17,port blair,11.67,92.75,83.32,78,100,9.4,IN,1593359457
18,severo-kurilsk,50.68,156.12,48.7,67,60,2.86,RU,1593359457
19,khatanga,71.97,102.5,77.09,43,44,11.01,RU,1593359458
20,luderitz,-26.65,15.16,65.61,50,0,23.76,NA,1593359458
21,nikolskoye,59.7,30.79,68.0,40,0,11.18,RU,1593359458
22,kontagora,10.4,5.47,89.24,52,72,2.24,NG,1593359458
23,kabalo,-6.05,26.92,87.73,32,89,4.43,CD,1593359458
24,pevek,69.7,170.31,31.95,99,100,18.28,RU,1593359458
25,tiksi,71.69,128.87,40.06,71,91,3.49,RU,1593359459
26,atuona,-9.8,-139.03,79.63,79,59,14.61,PF,1593359459
27,cidreira,-30.18,-50.21,59.36,55,0,3.51,BR,1593359390
28,upernavik,72.79,-56.15,41.63,70,0,8.93,GL,1593359459
29,taksimo,56.34,114.88,61.2,74,100,1.86,RU,1593359459
30,cherskiy,68.75,161.3,38.5,76,94,7.61,RU,1593359459
31,dingle,11.0,122.67,76.93,86,100,2.28,PH,1593359459
32,sistranda,63.73,8.83,77.0,47,75,18.34,NO,1593359459
33,vaini,-21.2,-175.2,75.2,94,75,4.7,TO,1593359460
34,bonavista,48.65,-53.11,57.02,85,81,10.25,CA,1593359300
35,kaeo,-35.1,173.78,51.01,3,0,3.0,NZ,1593359460
36,kampong thum,12.71,104.89,77.88,90,83,8.39,KH,1593359460
37,punta arenas,-53.15,-70.92,28.4,86,0,5.82,CL,1593359460
38,katsuura,35.13,140.3,69.01,94,100,6.55,JP,1593359460
39,hermanus,-34.42,19.23,57.99,80,28,3.0,ZA,1593359460
40,viedma,-40.81,-63.0,46.15,56,100,3.98,AR,1593359460
41,port elizabeth,-33.92,25.57,59.45,65,15,21.21,ZA,1593359461
42,hithadhoo,-0.6,73.08,85.68,68,100,8.05,MV,1593359461
43,gorontalo,0.54,123.06,73.89,88,92,2.26,ID,1593359461
44,lorengau,-2.02,147.27,81.18,80,92,8.14,PG,1593359461
45,yangambi,0.81,24.43,81.27,67,100,2.48,CD,1593359461
46,atasu,48.68,71.64,60.04,55,100,18.68,KZ,1593359461
47,poum,-20.23,164.02,71.2,70,4,9.66,NC,1593359461
48,kodiak,57.79,-152.41,51.8,87,90,9.17,US,1593359461
49,charyshskoye,51.4,83.56,53.76,62,100,4.81,RU,1593359462
50,mataura,-46.19,168.86,41.68,90,99,4.32,NZ,1593359462
51,aasiaat,68.71,-52.87,40.75,83,0,7.54,GL,1593359462
52,port alfred,-33.59,26.89,61.0,70,9,8.99,ZA,1593359462
53,bethel,41.37,-73.41,82.0,61,40,6.93,US,1593359462
54,barcelos,41.54,-8.62,78.01,83,20,8.05,PT,1593359440
55,narsaq,60.92,-46.05,55.4,54,40,8.05,GL,1593359462
56,bredasdorp,-34.53,20.04,60.8,63,33,9.17,ZA,1593359462
57,kulhudhuffushi,6.62,73.07,83.32,80,47,15.77,MV,1593359463
58,hobart,-42.88,147.33,44.6,81,90,8.05,AU,1593359346
59,bluff,-46.6,168.33,47.26,75,81,11.92,NZ,1593359463
60,zatoka,46.07,30.47,87.8,33,0,13.42,UA,1593359463
61,talaya,61.38,152.75,53.92,61,92,0.67,RU,1593359463
62,tasiilaq,65.61,-37.64,44.6,81,100,17.22,GL,1593359463
63,omboue,-1.57,9.26,76.17,74,20,10.76,GA,1593359464
64,polistena,38.41,16.08,82.4,74,20,3.36,IT,1593359464
65,dongsheng,39.82,109.98,64.2,76,16,5.5,CN,1593359464
66,shingu,33.73,135.98,68.52,84,77,6.42,JP,1593359464
67,iqaluit,63.75,-68.51,39.2,80,75,5.82,CA,1593359464
68,saldanha,-33.01,17.94,60.8,72,13,4.7,ZA,1593359464
69,hilo,19.73,-155.09,71.6,83,20,4.7,US,1593359385
70,longyearbyen,78.22,15.64,42.8,70,75,9.17,SJ,1593359464
71,ostrovnoy,68.05,39.51,43.18,75,91,6.22,RU,1593359464
72,sitka,57.05,-135.33,53.6,81,75,9.17,US,1593359464
73,porto novo,6.5,2.6,78.8,88,20,11.41,BJ,1593359465
74,sao joao da barra,-21.64,-41.05,75.2,69,75,9.17,BR,1593359465
75,acapulco,16.86,-99.89,84.2,66,20,5.82,MX,1593359465
76,priargunsk,50.37,119.1,61.07,63,94,3.24,RU,1593359465
77,saskylakh,71.92,114.08,69.39,52,92,8.86,RU,1593359465
78,saint-philippe,-21.36,55.77,70.0,83,34,3.36,RE,1593359465
79,kruisfontein,-34.0,24.73,54.34,72,5,16.15,ZA,1593359465
80,atar,20.52,-13.05,112.37,6,0,20.42,MR,1593359465
81,victoria,22.29,114.16,86.0,70,99,11.99,HK,1593359236
82,hay river,60.82,-115.8,55.4,66,75,10.29,CA,1593359465
83,formosa,-26.18,-58.18,59.0,77,18,3.36,AR,1593359466
84,sao filipe,14.9,-24.5,78.39,67,12,13.53,CV,1593359466
85,billings,45.78,-108.5,66.0,67,75,6.93,US,1593359295
86,cape town,-33.93,18.42,60.8,59,20,8.05,ZA,1593359466
87,lukovetskiy,64.3,41.92,51.8,66,75,6.71,RU,1593359466
88,gewane,10.17,40.65,99.07,16,38,7.61,ET,1593359466
89,half moon bay,37.46,-122.43,62.01,63,20,4.7,US,1593359186
90,udachnyy,66.42,112.4,73.4,43,62,4.47,RU,1593359466
91,lindi,-10.0,39.72,74.79,87,2,7.07,TZ,1593359467
92,sarh,9.14,18.39,95.0,44,40,4.7,TD,1593359467
93,ahuimanu,21.44,-157.84,75.2,73,40,4.7,US,1593359467
94,castro,-24.79,-50.01,54.68,85,100,6.2,BR,1593359467
95,beloha,-25.17,45.05,67.12,87,0,3.78,MG,1593359467
96,pisco,-13.7,-76.22,62.6,82,90,3.36,PE,1593359467
97,sasayama,35.07,135.22,72.0,84,28,3.11,JP,1593359467
98,umm kaddadah,13.6,26.69,99.46,17,26,5.93,SD,1593359468
99,champerico,14.3,-91.92,84.2,79,40,4.7,GT,1593359468
100,necochea,-38.55,-58.74,48.99,80,45,5.03,AR,1593359350
101,ponca city,36.71,-97.09,84.99,62,20,13.87,US,1593359266
102,butaritari,3.07,172.79,82.67,74,31,14.92,KI,1593359468
103,mahebourg,-20.41,57.7,71.6,83,75,9.17,MU,1593359468
104,maragogi,-9.01,-35.22,78.84,80,48,12.73,BR,1593359468
105,vanimo,-2.67,141.3,79.84,83,100,6.38,PG,1593359468
106,lavrentiya,65.58,-171.0,38.88,81,41,9.24,RU,1593359468
107,puerto ayora,-0.74,-90.35,75.2,73,75,11.41,EC,1593359468
108,sandnessjoen,66.02,12.63,80.6,39,31,6.93,NO,1593359469
109,havre-saint-pierre,50.23,-63.6,64.4,72,90,14.99,CA,1593359469
110,chuy,-33.7,-53.46,54.19,61,3,5.91,UY,1593359469
111,saint george,37.1,-113.58,89.6,19,1,14.99,US,1593359469
112,denpasar,-8.65,115.22,80.6,100,40,6.93,ID,1593359421
113,georgetown,5.41,100.34,86.0,74,40,10.29,MY,1593359469
114,new norfolk,-42.78,147.06,42.01,91,41,2.75,AU,1593359469
115,berlevag,70.86,29.09,42.8,87,90,10.29,NO,1593359469
116,klaksvik,62.23,-6.59,59.0,82,96,18.34,FO,1593359469
117,constitucion,-35.33,-72.42,54.0,93,100,15.93,CL,1593359469
118,kedougou,12.56,-12.17,89.6,59,75,6.93,SN,1593359470
119,provideniya,64.38,-173.3,39.18,81,98,16.04,RU,1593359470
120,yabrud,33.97,36.66,95.0,12,0,12.75,SY,1593359470
121,carnarvon,-24.87,113.63,68.0,100,40,8.05,AU,1593359470
122,kapaa,22.08,-159.32,73.4,94,75,4.7,US,1593359470
123,moose factory,51.26,-80.61,66.2,72,1,5.82,CA,1593359470
124,mount isa,-20.73,139.5,60.8,48,0,5.82,AU,1593359470
125,tilichiki,60.47,166.1,41.88,93,17,1.7,RU,1593359470
126,bay roberts,47.6,-53.26,68.0,93,90,3.36,CA,1593359471
127,bara,10.37,10.73,88.2,52,100,10.38,NG,1593359471
128,avarua,-21.21,-159.78,71.6,68,56,5.82,CK,1593359471
129,fallon,39.47,-118.78,79.0,16,1,5.82,US,1593359471
130,hobyo,5.35,48.53,79.93,75,48,24.38,SO,1593359471
131,mamallapuram,12.63,80.17,84.2,74,40,4.7,IN,1593359415
132,maceio,-9.67,-35.74,80.6,74,75,11.41,BR,1593359471
133,husavik,66.04,-17.34,53.6,81,20,10.29,IS,1593359471
134,sinor,21.92,73.33,93.2,63,40,13.87,IN,1593359471
135,luanda,-8.84,13.23,77.0,73,20,9.17,AO,1593359472
136,banda aceh,5.56,95.32,80.47,82,88,10.18,ID,1593359472
137,cabedelo,-6.98,-34.83,82.4,74,40,11.41,BR,1593359472
138,raudeberg,61.99,5.14,57.99,90,100,9.66,NO,1593359472
139,codrington,-38.27,141.97,42.73,85,18,7.11,AU,1593359472
140,arraial do cabo,-22.97,-42.03,75.2,73,40,16.11,BR,1593359472
141,kavaratti,10.57,72.64,83.97,80,99,19.73,IN,1593359472
142,bilibino,68.05,166.44,34.63,85,2,6.29,RU,1593359472
143,jinchang,38.5,102.17,75.0,21,0,3.06,CN,1593359472
144,mazagao,-0.12,-51.29,89.6,70,40,8.05,BR,1593359473
145,beringovskiy,63.05,179.32,40.17,71,8,18.16,RU,1593359473
146,yulara,-25.24,130.99,50.0,34,0,6.93,AU,1593359473
147,dikson,73.51,80.55,43.97,100,100,9.04,RU,1593359473
148,torrington,41.8,-73.12,82.0,73,0,1.99,US,1593359473
149,isangel,-19.55,169.27,69.51,81,37,10.92,VU,1593359473
150,alofi,-19.06,-169.92,75.2,88,62,2.24,NU,1593359473
151,luau,-10.71,22.22,77.79,29,0,1.3,AO,1593359473
152,solnechnyy,50.72,136.63,55.62,87,41,5.73,RU,1593359473
153,pakhtakoron,40.16,68.75,65.93,27,0,5.03,TJ,1593359473
154,tulum,20.22,-87.47,89.01,70,20,9.17,MX,1593359474
155,strelice,49.15,16.5,87.01,51,20,8.05,CZ,1593359474
156,margate,51.38,1.39,66.0,57,0,8.99,GB,1593359474
157,evensk,61.95,159.23,44.82,90,100,2.44,RU,1593359474
158,victoria point,-27.58,153.3,57.0,83,39,1.01,AU,1593359438
159,zyryanka,65.75,150.85,55.56,38,91,6.55,RU,1593359474
160,ostersund,63.18,14.64,73.4,43,31,17.22,SE,1593359474
161,talnakh,69.49,88.4,75.2,47,30,15.66,RU,1593359475
162,atambua,-9.11,124.89,70.38,89,41,5.39,ID,1593359475
163,dhidhdhoo,6.88,73.1,83.3,80,71,16.53,MV,1593359475
164,esperance,-33.87,121.9,57.2,93,90,17.22,AU,1593359475
165,cabo san lucas,22.89,-109.91,82.99,61,90,1.99,MX,1593359402
166,calama,-22.47,-68.93,64.4,8,74,5.82,CL,1593359475
167,tombouctou,20.0,-3.0,113.79,6,25,4.65,ML,1593359475
168,batticaloa,7.71,81.69,84.56,76,91,4.83,LK,1593359475
169,hiliseu-horia,48.03,26.25,81.0,61,20,12.75,RO,1593359252
170,guerrero negro,27.98,-114.06,71.29,65,0,5.39,MX,1593359475
171,kargil,34.57,76.1,48.94,62,79,6.78,IN,1593359476
172,buritama,-21.07,-50.15,74.77,56,27,8.12,BR,1593359476
173,ust-tsilma,65.44,52.15,47.37,76,100,4.88,RU,1593359476
174,santa maria,-29.68,-53.81,53.6,81,20,9.17,BR,1593359476
175,tuatapere,-46.13,167.68,45.0,83,97,5.41,NZ,1593359476
176,puerto madryn,-42.77,-65.04,42.04,62,100,5.41,AR,1593359210
177,ribeira grande,38.52,-28.7,71.6,88,75,17.22,PT,1593359476
178,erie,42.77,-78.67,75.99,78,20,13.87,US,1593359476
179,pontianak,-0.03,109.33,76.01,83,39,2.71,ID,1593359476
180,lazaro cardenas,17.96,-102.2,87.89,53,63,2.24,MX,1593359476
181,mjolby,58.33,15.12,77.0,73,100,8.05,SE,1593359477
182,orotukan,62.27,151.7,54.84,62,100,2.04,RU,1593359477
183,mount gambier,-37.83,140.77,42.8,87,27,6.93,AU,1593359477
184,jamestown,42.1,-79.24,71.6,64,20,11.41,US,1593359477
185,leningradskiy,69.38,178.42,29.01,98,96,4.74,RU,1593359477
186,burnie,-41.07,145.92,43.0,92,14,3.0,AU,1593359477
187,ocos,14.51,-92.19,84.2,78,75,8.05,GT,1593359477
188,amapa,1.0,-52.0,85.96,63,93,4.85,BR,1593359478
189,bathsheba,13.22,-59.52,87.8,70,40,13.87,BB,1593359478
190,parrita,9.52,-84.32,77.0,61,51,8.05,CR,1593359478
191,taiping,4.85,100.73,82.4,88,20,2.24,MY,1593359238
192,kamogata,34.53,133.58,68.0,94,0,3.47,JP,1593359478
193,coari,-4.08,-63.14,87.62,60,28,2.89,BR,1593359372
194,zemio,5.03,25.14,78.39,81,22,4.12,CF,1593359478
195,russellville,35.28,-93.13,84.2,66,75,10.29,US,1593359429
196,qeshm,26.96,56.27,95.0,67,0,11.41,IR,1593359479
197,beira,-19.84,34.84,75.2,88,20,8.05,MZ,1593359479
198,ust-nera,64.57,143.2,61.66,55,11,1.77,RU,1593359479
199,balkhash,46.84,74.98,64.67,47,1,11.43,KZ,1593359479
200,vestmanna,62.16,-7.17,59.0,82,97,18.34,FO,1593359479
201,yaan,7.38,8.57,76.62,88,100,7.65,NG,1593359479
202,bakuriani,41.75,43.53,56.35,90,43,3.18,GE,1593359479
203,micheweni,-4.97,39.83,76.98,87,2,10.25,TZ,1593359479
204,chokurdakh,70.63,147.92,53.38,59,100,10.83,RU,1593359479
205,la ronge,55.1,-105.28,64.4,82,75,4.7,CA,1593359480
206,riyadh,24.69,46.72,109.4,7,76,6.93,SA,1593359208
207,chapais,49.78,-74.85,73.4,60,40,6.93,CA,1593359480
208,bien hoa,10.95,106.82,77.0,100,75,5.82,VN,1593359480
209,manoharpur,27.3,75.95,98.6,35,20,5.82,IN,1593359480
210,salinas,36.68,-121.66,60.8,72,90,10.29,US,1593359480
211,norman wells,65.28,-126.83,57.2,62,20,6.93,CA,1593359480
212,nadym,65.53,72.52,51.26,81,100,14.5,RU,1593359480
213,torbay,47.67,-52.73,68.0,87,90,9.17,CA,1593359481
214,djambala,-2.54,14.75,85.51,37,7,4.88,CG,1593359481
215,tessalit,20.2,1.01,109.87,7,23,10.78,ML,1593359481
216,henties bay,-22.12,14.28,63.0,71,0,5.01,NA,1593359481
217,tautira,-17.73,-149.15,69.8,83,19,4.7,PF,1593359481
218,mahibadhoo,3.78,72.97,83.93,77,4,13.73,MV,1593359481
219,zomba,-15.39,35.32,70.74,49,72,3.96,MW,1593359481
220,gao,16.64,1.64,106.79,11,41,9.71,ML,1593359481
221,sambava,-14.27,50.17,74.52,87,4,13.85,MG,1593359481
222,san luis,-33.3,-66.34,54.93,40,22,10.56,AR,1593359387
223,logrono,42.47,-2.45,87.8,35,32,5.82,ES,1593359482
224,nouadhibou,20.93,-17.03,77.0,61,0,24.16,MR,1593359482
225,nyurba,63.28,118.33,65.95,57,49,3.87,RU,1593359482
226,havoysund,71.0,24.66,44.6,87,75,10.29,NO,1593359482
227,hoquiam,46.98,-123.89,57.0,87,90,3.36,US,1593359482
228,tuktoyaktuk,69.45,-133.04,39.2,93,75,4.7,CA,1593359482
229,choya,52.01,86.55,58.71,62,100,1.72,RU,1593359482
230,faanui,-16.48,-151.75,76.33,79,59,23.85,PF,1593359482
231,iquitos,-3.75,-73.25,82.4,78,40,4.7,PE,1593359483
232,palu,-0.89,119.87,74.73,83,100,0.56,ID,1593359483
233,fukue,32.69,128.84,75.24,78,50,7.83,JP,1593359483
234,hualmay,-11.1,-77.61,66.79,68,52,9.04,PE,1593359483
235,natal,-5.79,-35.21,84.2,66,75,10.29,BR,1593359370
236,souillac,-20.52,57.52,71.6,83,75,9.17,MU,1593359483
237,urumqi,43.8,87.6,64.4,52,20,17.9,CN,1593359483
238,yurecuaro,20.33,-102.3,77.81,54,62,2.39,MX,1593359483
239,vanavara,60.34,102.28,64.42,68,6,3.06,RU,1593359483
240,lodwar,3.12,35.6,91.22,31,9,10.27,KE,1593359484
241,kavieng,-2.57,150.8,82.53,79,35,12.33,PG,1593359484
242,vaasa,63.1,21.62,75.2,38,3,11.41,FI,1593359484
243,grindavik,63.84,-22.43,53.6,93,90,11.41,IS,1593359484
244,faya,18.39,42.45,87.8,11,75,13.87,SA,1593359484
245,chapleau,47.84,-83.4,75.6,46,0,7.25,CA,1593359484
246,auki,-8.77,160.7,78.53,78,94,3.71,SB,1593359484
247,kaabong,3.48,34.15,69.24,67,20,5.64,UG,1593359484
248,cururupu,-1.83,-44.87,84.29,74,72,6.29,BR,1593359299
249,zavodskoy,43.46,132.29,57.2,93,90,4.47,RU,1593359484
250,iwaki,37.05,140.88,64.99,88,0,1.01,JP,1593359485
251,sorland,67.67,12.69,57.2,82,33,12.75,NO,1593359485
252,charters towers,-20.1,146.27,62.1,90,55,10.67,AU,1593359485
253,aanekoski,62.69,25.82,73.99,35,14,8.05,FI,1593359485
254,bengkulu,-3.8,102.27,78.03,87,40,6.06,ID,1593359211
255,huicungo,-7.28,-76.8,84.78,54,28,1.97,PE,1593359485
256,sola,-13.88,167.55,77.0,100,90,15.59,VU,1593359485
257,los llanos de aridane,28.66,-17.92,75.2,73,75,17.22,ES,1593359485
258,kaspiysk,42.88,47.64,71.6,53,23,13.42,RU,1593359326
259,san andres,12.58,-81.7,86.0,79,75,12.75,CO,1593359485
260,palmer,42.16,-72.33,82.0,65,75,6.91,US,1593359485
261,hofn,64.25,-15.21,62.6,67,75,21.92,IS,1593359486
262,plettenberg bay,-34.05,23.37,58.26,65,22,14.45,ZA,1593359316
263,uyuni,-20.46,-66.83,47.82,35,0,15.9,BO,1593359486
264,ancud,-41.87,-73.82,46.0,100,90,5.82,CL,1593359486
265,anadyr,64.75,177.48,33.8,80,20,4.47,RU,1593359486
266,tanout,14.97,8.89,102.88,8,0,7.58,NE,1593359486
267,yuancheng,36.65,107.79,69.35,77,7,7.78,CN,1593359486
268,pag,44.45,15.06,86.0,42,20,12.75,HR,1593359486
269,pangai,-19.8,-174.35,77.95,83,100,13.89,TO,1593359486
270,san cristobal,7.77,-72.22,87.8,45,40,20.8,VE,1593359486
271,mopipi,-21.18,24.88,65.14,23,0,6.82,BW,1593359487
272,rocha,-34.48,-54.33,53.78,69,37,5.97,UY,1593359487
273,mayo,38.89,-76.51,84.0,65,1,4.7,US,1593359279
274,saint-joseph,-21.37,55.62,70.0,83,36,3.36,RE,1593359487
275,robertsport,6.75,-11.37,78.62,85,66,14.45,LR,1593359487
276,brunswick,41.24,-81.84,78.01,60,40,6.11,US,1593359329
277,rio gallegos,-51.62,-69.22,23.0,85,20,9.17,AR,1593359487
278,sinazongwe,-17.26,27.46,72.57,45,0,0.43,ZM,1593359487
279,bilma,18.69,12.92,104.31,7,0,7.31,NE,1593359488
280,ayr,55.46,-4.63,55.4,87,75,23.04,GB,1593359488
281,kouroussa,10.65,-9.88,86.16,63,65,4.83,GN,1593359488
282,george town,5.41,100.34,86.0,74,40,10.29,MY,1593359469
283,zhanaozen,43.3,52.8,76.77,24,100,20.51,KZ,1593359488
284,lagoa,39.05,-27.98,68.43,91,100,6.44,PT,1593359488
285,kandara,25.72,73.28,96.67,40,56,14.88,IN,1593359488
286,sibolga,1.74,98.78,77.63,82,77,3.09,ID,1593359488
287,sur,22.57,59.53,88.57,65,0,16.69,OM,1593359488
288,arman,59.7,150.17,46.8,87,1,2.3,RU,1593359488
289,fort nelson,58.81,-122.7,57.2,76,75,10.29,CA,1593359360
290,sadiqabad,28.31,70.13,105.58,28,0,23.31,PK,1593359489
291,pitimbu,-7.47,-34.81,82.4,74,40,11.41,BR,1593359489
292,wagar,16.15,36.2,102.24,11,85,3.04,SD,1593359489
293,suez,29.97,32.53,90.88,29,0,19.53,EG,1593359435
294,alexandria,31.22,29.96,77.38,73,0,14.03,EG,1593359489
295,san patricio,19.22,-104.7,84.2,74,75,8.37,MX,1593359489
296,kenai,60.55,-151.26,48.2,87,90,3.36,US,1593359489
297,manggar,-2.88,108.27,82.04,79,80,12.77,ID,1593359489
298,baijiantan,45.63,85.18,73.0,24,100,21.12,CN,1593359490
299,williston,48.15,-103.62,72.0,74,95,10.8,US,1593359490
300,ilampillai,11.6,78.0,81.75,71,99,5.17,IN,1593359490
301,kieta,-6.22,155.63,79.16,79,85,2.46,PG,1593359490
302,verkh-usugli,52.7,115.17,57.29,78,89,1.66,RU,1593359490
303,longonjo,-12.91,15.25,78.8,26,0,5.82,AO,1593359490
304,vardo,70.37,31.11,44.6,87,75,18.34,NO,1593359490
305,lebu,-37.62,-73.65,53.4,93,96,14.43,CL,1593359490
306,karasjok,69.47,25.51,51.8,66,73,16.11,NO,1593359490
307,sovetskiy,61.36,63.58,55.74,59,100,6.06,RU,1593359491
308,umba,66.69,34.34,51.66,70,100,7.23,RU,1593359491
309,elizabethtown,37.69,-85.86,69.8,100,90,10.29,US,1593359491
310,cayenne,4.93,-52.33,86.0,66,65,4.68,GF,1593359332
311,corinto,37.94,22.96,91.99,32,0,7.0,GR,1593359491
312,salalah,17.02,54.09,86.0,84,75,14.99,OM,1593359491
313,maniitsoq,65.42,-52.9,42.37,87,78,8.1,GL,1593359491
314,talara,-4.58,-81.27,72.1,67,7,14.32,PE,1593359491
315,ofunato,39.07,141.72,62.15,88,4,4.34,JP,1593359492
316,vila,42.03,-8.16,75.0,72,48,10.0,PT,1593359489
317,waingapu,-9.66,120.26,74.93,81,98,10.42,ID,1593359492
318,mutare,-18.97,32.67,62.55,38,0,1.72,ZW,1593359492
319,linfen,36.09,111.52,79.21,54,27,5.57,CN,1593359492
320,saint anthony,45.02,-93.22,82.0,51,1,9.17,US,1593359492
321,khani,41.96,42.96,78.8,65,40,13.87,GE,1593359492
322,dourbali,11.81,15.86,98.55,29,70,2.33,TD,1593359492
323,lingao,19.91,109.69,83.17,75,90,5.59,CN,1593359493
324,leglise,49.8,5.54,66.0,73,100,1.01,BE,1593359493
325,lima,-12.04,-77.03,60.8,82,90,5.82,PE,1593359330
326,peniche,39.36,-9.38,80.01,77,2,10.0,PT,1593359493
327,kiama,-34.68,150.87,52.0,94,6,5.01,AU,1593359493
328,dingli,35.86,14.38,84.2,39,0,10.29,MT,1593359493
329,harper,4.38,-7.72,79.14,72,82,11.95,LR,1593359493
330,chany,55.31,76.76,53.69,81,72,13.69,RU,1593359493
331,pangnirtung,66.15,-65.71,48.31,62,48,4.32,CA,1593359493
332,jingdezhen,29.29,117.21,79.65,82,100,3.8,CN,1593359493
333,kamaishi,39.27,141.88,61.84,89,9,5.3,JP,1593359494
334,mukhen,48.1,136.1,59.38,94,96,3.33,RU,1593359494
335,tongchuan,35.08,109.09,69.31,79,0,2.35,CN,1593359494
336,mar del plata,-38.0,-57.56,48.2,76,20,4.7,AR,1593359352
337,kaitangata,-46.28,169.85,46.0,74,100,5.99,NZ,1593359494
338,yar-sale,66.83,70.83,53.56,61,78,6.08,RU,1593359494
339,touros,-5.2,-35.46,84.2,66,75,10.29,BR,1593359494
340,san vicente,-26.62,-54.13,66.99,58,52,2.46,AR,1593359494
341,mwinilunga,-11.74,24.43,75.07,33,64,8.34,ZM,1593359494
342,millinocket,45.66,-68.71,73.4,64,20,3.36,US,1593359346
343,nemuro,43.32,145.57,49.08,97,100,15.43,JP,1593359495
344,rach gia,10.02,105.08,81.52,80,98,10.04,VN,1593359495
345,bambanglipuro,-7.95,110.28,77.31,86,59,9.73,ID,1593359495
346,coquimbo,-29.95,-71.34,55.4,82,75,3.36,CL,1593359495
347,manokwari,-0.87,134.08,78.03,75,100,6.31,ID,1593359495
348,avera,33.19,-82.53,89.6,59,1,10.29,US,1593359495
349,mubi,10.27,13.26,84.45,62,73,6.31,NG,1593359495
350,prince rupert,54.32,-130.32,51.8,100,90,2.24,CA,1593359495
351,qinzhou,21.95,108.62,82.69,81,80,7.78,CN,1593359495
352,mersing,2.43,103.84,77.0,100,67,3.36,MY,1593359495
353,nizwa,22.93,57.53,96.08,31,73,1.86,OM,1593359496
354,thunder bay,48.4,-89.32,75.2,57,20,5.82,CA,1593359244
355,kerouane,9.27,-9.02,81.46,80,54,3.56,GN,1593359496
356,mandalgovi,45.76,106.27,61.79,58,59,19.86,MN,1593359496
357,praia,14.92,-23.51,86.0,55,20,21.92,CV,1593359496
358,labuhan,-6.88,112.21,77.86,83,0,7.45,ID,1593359496
359,aksarka,66.56,67.8,56.57,58,78,8.41,RU,1593359496
360,bongaree,-27.08,153.16,55.99,91,49,13.6,AU,1593359496
361,inhambane,-23.86,35.38,82.4,30,0,10.11,MZ,1593359496
362,chiredzi,-21.05,31.67,69.44,23,0,4.63,ZW,1593359497
363,terra santa,-2.1,-56.49,82.44,86,49,4.61,BR,1593359497
364,inyonga,-6.72,32.07,77.81,36,30,3.98,TZ,1593359497
365,shanting,35.08,117.46,71.06,84,100,10.6,CN,1593359497
366,casablanca,33.59,-7.62,80.6,61,0,17.22,MA,1593359334
367,bauchi,10.5,10.0,88.43,44,97,5.44,NG,1593359497
368,nome,64.5,-165.41,44.6,100,90,6.93,US,1593359497
369,rawson,-43.3,-65.1,41.07,66,100,1.72,AR,1593359497
370,rancho palos verdes,33.74,-118.39,66.0,100,90,6.93,US,1593359497
371,jacksonville,30.33,-81.66,90.0,62,75,8.05,US,1593359310
372,banjar,-8.19,114.97,80.6,100,40,6.93,ID,1593359498
373,prado,-17.34,-39.22,79.7,62,0,6.58,BR,1593359498
374,harrison,30.41,-89.04,87.01,70,40,9.17,US,1593359315
375,garowe,8.41,48.48,89.24,35,43,17.22,SO,1593359498
376,takefu,35.9,136.17,68.0,94,75,4.7,JP,1593359498
377,aklavik,68.22,-135.01,53.6,58,40,4.7,CA,1593359498
378,hokitika,-42.72,170.97,49.84,83,99,6.85,NZ,1593359498
379,grand island,40.92,-98.34,81.0,73,1,12.75,US,1593359498
380,tazovskiy,67.47,78.7,54.86,95,94,8.52,RU,1593359498
381,asmar,35.03,71.36,79.45,38,5,5.68,AF,1593359498
382,lata,40.16,-8.33,84.0,53,0,11.23,PT,1593359498
383,hasaki,35.73,140.83,68.0,100,75,2.24,JP,1593359499
384,muros,42.78,-9.06,66.99,92,89,4.0,ES,1593359499
385,korla,41.76,86.15,80.01,76,66,3.0,CN,1593359499
386,bojonegoro,-7.15,111.88,75.2,86,1,6.15,ID,1593359499
387,horsham,51.06,-0.33,66.99,48,40,18.34,GB,1593359499
388,viransehir,37.24,39.76,96.6,17,57,4.09,TR,1593359499
389,yellowknife,62.46,-114.35,61.0,51,75,10.29,CA,1593359416
390,kemijarvi,66.71,27.43,65.41,34,85,3.62,FI,1593359499
391,miandoab,36.97,46.1,86.0,27,20,4.7,IR,1593359499
392,roald,62.58,6.13,62.6,82,75,9.17,NO,1593359499
393,tahta,26.77,31.5,98.37,11,0,15.9,EG,1593359500
394,namibe,-15.2,12.15,72.66,58,0,9.46,AO,1593359500
395,petrolina de goias,-16.09,-49.34,78.8,47,20,9.17,BR,1593359500
396,porosozero,62.72,32.73,58.51,51,99,4.65,RU,1593359500
397,resistencia,-27.46,-58.98,64.0,63,28,5.82,AR,1593359500
398,adrar,20.5,-10.07,112.48,6,0,13.0,MR,1593359500
399,pop,40.87,71.11,75.2,22,0,6.93,UZ,1593359500
400,meulaboh,4.14,96.13,79.39,84,97,4.03,ID,1593359500
401,sol-iletsk,51.16,54.99,65.75,65,19,8.7,RU,1593359500
402,samarai,-10.62,150.67,78.31,85,82,16.15,PG,1593359501
403,honolulu,21.31,-157.86,75.2,73,40,4.7,US,1593359213
404,jibuti,11.5,42.5,98.6,37,1,4.7,DJ,1593359501
405,skjervoy,70.03,20.97,47.12,83,0,6.11,NO,1593359501
406,christchurch,-43.53,172.63,48.2,100,100,18.34,NZ,1593359358
407,eirunepe,-6.66,-69.87,87.91,56,93,3.83,BR,1593359501
408,port hardy,50.7,-127.42,57.2,76,20,5.82,CA,1593359501
409,chumikan,54.72,135.31,43.43,90,74,1.45,RU,1593359501
410,keetmanshoop,-26.58,18.13,69.8,33,0,1.12,NA,1593359501
411,churapcha,62.0,132.43,64.13,56,18,3.85,RU,1593359501
412,zomin,39.96,68.4,65.19,28,0,7.23,UZ,1593359501
413,kirn,49.78,7.45,68.0,72,20,10.29,DE,1593359502
414,lovozero,68.0,35.01,48.33,69,100,4.34,RU,1593359502
415,mason city,43.15,-93.2,78.01,83,1,11.41,US,1593359412
416,shimoda,34.67,138.95,64.0,94,87,6.76,JP,1593359502
417,whittlesea,-32.18,26.82,44.38,61,0,8.59,ZA,1593359502
418,ishigaki,24.34,124.16,83.95,85,96,19.42,JP,1593359502
419,akdepe,42.06,59.38,82.4,23,100,9.17,TM,1593359502
420,tutoia,-2.76,-42.27,84.2,78,17,6.17,BR,1593359502
421,la cruz,23.92,-106.9,89.01,60,96,3.0,MX,1593359502
422,stillwater,36.12,-97.06,84.2,66,75,19.46,US,1593359502
423,cabinda,-5.55,12.2,78.8,65,20,8.05,AO,1593359503
424,sibu,2.3,111.82,78.8,100,40,1.28,MY,1593359503
425,bossier city,32.52,-93.73,89.01,66,75,12.75,US,1593359503
426,vestmannaeyjar,63.44,-20.27,60.8,82,75,5.82,IS,1593359503
427,grand gaube,-20.01,57.66,73.99,76,12,5.99,MU,1593359503
428,bandar-e lengeh,26.56,54.88,93.2,67,0,6.93,IR,1593359503
429,marystown,47.17,-55.15,64.24,79,100,8.08,CA,1593359503
430,khasan,42.43,130.64,58.26,95,21,3.53,RU,1593359503
431,kemin,42.78,75.69,48.87,77,100,7.16,KG,1593359503
432,kanye,-24.97,25.33,54.41,36,0,7.67,BW,1593359503
433,pasighat,28.07,95.33,76.33,82,64,3.0,IN,1593359504
434,boguchany,58.38,97.45,68.72,64,56,4.56,RU,1593359504
435,wajima,37.4,136.9,67.41,78,89,7.31,JP,1593359504
436,ola,59.58,151.28,45.9,91,7,4.94,RU,1593359504
437,aswan,24.09,32.91,104.2,10,34,10.94,EG,1593359504
438,mattru,7.62,-11.83,79.63,88,82,4.79,SL,1593359504
439,tura,25.52,90.22,75.58,95,49,7.2,IN,1593359504
440,celestun,20.87,-90.4,87.08,61,45,4.74,MX,1593359504
441,datong,40.09,113.29,67.03,64,66,3.98,CN,1593359504
442,portland,45.52,-122.68,59.0,67,75,10.29,US,1593359450
443,qandala,11.47,49.87,92.91,50,36,3.13,SO,1593359504
444,koshurnikovo,54.17,93.3,56.86,90,82,3.36,RU,1593359505
445,port lincoln,-34.73,135.87,52.54,56,0,10.83,AU,1593359505
446,xuanwu,32.07,118.81,78.8,100,90,6.71,CN,1593359505
447,kyren,51.68,102.14,60.69,68,43,0.81,RU,1593359505
448,rebrikha,53.07,82.34,53.62,72,43,6.71,RU,1593359505
449,waipawa,-41.41,175.52,54.0,75,20,5.99,NZ,1593359505
450,west helena,34.55,-90.64,82.4,74,40,12.75,US,1593359505
451,ulaanbaatar,47.91,106.88,62.6,67,40,6.71,MN,1593359284
452,csolnok,47.69,18.72,91.99,34,0,1.99,HU,1593359505
453,suamico,44.63,-88.04,77.0,50,1,11.41,US,1593359338
454,siwan,26.22,84.37,86.88,70,62,4.68,IN,1593359475
455,catuday,16.29,119.81,77.09,92,100,9.93,PH,1593359506
456,kailua,21.4,-157.74,75.2,73,40,4.7,US,1593359506
457,cairns,-16.92,145.77,68.0,88,40,9.17,AU,1593359506
458,tsuruoka,38.72,139.82,64.36,86,99,7.65,JP,1593359506
459,puerto escondido,15.85,-97.07,84.2,70,20,6.04,MX,1593359506
460,comodoro rivadavia,-45.87,-67.5,37.4,87,40,1.12,AR,1593359506
461,storozhevaya,43.88,41.45,64.74,78,2,3.18,RU,1593359506
462,belozerskoye,55.82,65.58,50.68,86,36,9.8,RU,1593359506
463,tonantins,-2.87,-67.8,85.42,71,93,3.13,BR,1593359506
464,goderich,43.75,-81.72,68.0,74,0,9.33,CA,1593359430
465,winnemucca,40.97,-117.74,66.2,20,90,5.82,US,1593359360
466,itoman,26.12,127.67,82.4,94,40,11.41,JP,1593359507
467,spornoye,50.84,37.29,84.2,37,90,6.71,RU,1593359507
468,harbour breton,47.48,-55.8,58.46,90,100,6.06,CA,1593359507
469,reggello,43.68,11.53,91.99,35,0,4.0,IT,1593359507
470,port-cartier,50.03,-66.87,59.0,87,90,12.75,CA,1593359507
471,araxa,-19.59,-46.94,73.4,56,44,4.7,BR,1593359507
472,broome,42.25,-75.83,77.0,73,75,8.05,US,1593359507
473,dunedin,-45.87,170.5,45.0,86,100,3.0,NZ,1593359507
474,englehart,47.82,-79.87,73.4,64,20,10.29,CA,1593359507
475,alice springs,-23.7,133.88,39.2,51,0,7.02,AU,1593359507
476,qingyuan,23.7,113.03,87.8,58,20,8.95,CN,1593359507
477,sangin,32.07,64.84,93.97,9,0,18.21,AF,1593359508
478,raga,8.46,25.68,81.88,67,14,1.57,SS,1593359508
479,jiazi,22.88,116.07,81.99,83,100,6.87,CN,1593359508
480,searcy,35.25,-91.74,84.99,78,75,9.17,US,1593359342
481,yining,29.04,114.56,77.43,90,100,3.02,CN,1593359508
482,dubova,44.62,22.27,86.85,43,1,0.65,RO,1593359508
483,eyl,7.98,49.82,84.31,61,22,25.55,SO,1593359508
484,tiarei,-17.53,-149.33,69.8,83,10,4.7,PF,1593359508
485,te anau,-45.42,167.72,38.98,83,64,2.46,NZ,1593359508
486,villacarrillo,38.12,-3.08,104.0,14,0,8.37,ES,1593359508
487,chernyshevskiy,63.01,112.47,62.01,72,26,2.71,RU,1593359508
488,yugorsk,61.31,63.33,55.98,57,100,6.44,RU,1593359509
489,krasnoselkup,65.7,82.47,62.44,90,91,10.27,RU,1593359509
490,bitam,2.08,11.5,82.4,69,75,2.62,GA,1593359509
491,hakui,36.88,136.78,69.01,86,53,1.01,JP,1593359509
492,pastos bons,-6.6,-44.08,90.34,40,0,8.9,BR,1593359509
493,college,64.86,-147.8,57.99,62,75,2.84,US,1593359478
494,bellevue,47.61,-122.2,55.0,93,90,3.2,US,1593359236
495,cap-aux-meules,47.38,-61.86,69.8,73,75,11.41,CA,1593359509
496,kugesi,56.03,47.29,62.6,45,20,6.71,RU,1593359509
497,laguna,38.42,-121.42,66.0,67,1,13.87,US,1593359284
498,cockburn town,21.46,-71.14,82.27,80,5,12.62,TC,1593359389
499,batagay-alyta,67.8,130.41,58.82,77,24,4.36,RU,1593359510
500,buala,-8.14,159.59,80.44,77,28,3.6,SB,1593359510
501,shenjiamen,29.96,122.3,75.94,95,100,16.13,CN,1593359510
502,hit,33.64,42.83,100.45,8,0,10.04,IQ,1593359510
503,ugoofaaru,5.67,73.0,83.44,80,8,15.05,MV,1593359510
504,nabire,-3.37,135.48,75.81,89,100,2.89,ID,1593359510
505,murgab,37.5,61.97,84.2,11,0,6.93,TM,1593359510
506,araouane,18.9,-3.53,112.35,7,6,1.81,ML,1593359510
507,leh,34.17,77.58,61.3,28,36,9.13,IN,1593359511
508,oxelosund,58.67,17.1,77.0,50,79,12.75,SE,1593359511
509,palana,59.12,159.97,45.72,81,66,13.13,RU,1593359511
510,mabaruma,8.2,-59.78,83.32,77,10,5.93,GY,1593359511
511,colesberg,-30.72,25.1,47.86,51,0,7.74,ZA,1593359511
512,jutai,-5.18,-68.9,88.57,54,100,4.7,BR,1593359511
513,qasigiannguit,68.82,-51.19,41.0,80,75,5.82,GL,1593359511
514,gerash,27.67,54.14,102.2,29,20,13.87,IR,1593359511
515,iskateley,67.68,53.15,42.46,74,93,15.12,RU,1593359511
516,sept-iles,50.2,-66.38,59.0,87,90,12.75,CA,1593359452
517,lyuban,52.8,28.0,72.52,78,0,8.9,BY,1593359512
518,havre,49.58,0.33,66.2,55,14,13.87,FR,1593359512
519,la romana,18.43,-68.97,86.0,70,75,9.17,DO,1593359512
520,svencionys,55.15,26.17,73.31,78,8,6.42,LT,1593359512
521,tolaga bay,-38.37,178.3,52.68,72,3,8.01,NZ,1593359512
522,broken hill,-31.95,141.43,41.0,65,21,6.93,AU,1593359512
523,hanmer springs,-42.52,172.82,44.73,81,52,2.44,NZ,1593359512
524,makakilo city,21.35,-158.09,75.2,78,1,3.36,US,1593359512
525,barcelona,41.39,2.16,84.99,69,20,12.75,ES,1593359261
526,baraki barak,33.97,68.95,71.98,19,0,7.38,AF,1593359513
527,opelousas,30.53,-92.08,88.0,70,40,11.41,US,1593359513
528,morondava,-20.28,44.28,75.9,72,0,11.83,MG,1593359513
529,silleda,42.7,-8.25,72.0,77,75,5.82,ES,1593359513
530,capaci,38.17,13.24,84.0,83,40,10.29,IT,1593359513
531,gazli,40.13,63.45,76.15,18,100,10.65,UZ,1593359513
532,vagur,61.47,-6.81,52.45,92,96,18.57,FO,1593359513
533,sorong,-0.88,131.25,79.75,82,100,8.86,ID,1593359513
534,cravo norte,6.3,-70.2,76.06,92,97,8.55,CO,1593359513
535,suntar,62.14,117.63,68.0,54,52,5.84,RU,1593359514
536,kibala,9.11,18.35,95.0,44,40,4.7,TD,1593359514
537,hirara,24.8,125.28,83.35,85,100,18.57,JP,1593359514
538,surovikino,48.61,42.85,81.59,44,18,7.99,RU,1593359514
539,pandan,14.05,124.17,79.16,83,99,6.08,PH,1593359514
540,coahuayana,18.73,-103.68,80.6,61,40,13.87,MX,1593359514
541,namatanai,-3.67,152.43,79.5,79,77,6.87,PG,1593359514
542,mareeba,-17.0,145.43,68.0,88,40,9.17,AU,1593359514
543,olafsvik,64.89,-23.71,54.46,82,97,5.7,IS,1593359514
544,iranshahr,27.2,60.68,111.2,13,20,9.17,IR,1593359514
545,egvekinot,66.32,-179.17,31.55,95,100,11.97,RU,1593359514
546,bibiani,6.46,-2.32,78.62,93,49,4.79,GH,1593359515
547,koumra,8.91,17.55,90.0,46,95,3.53,TD,1593359515
548,omegna,45.88,8.41,86.0,46,12,1.01,IT,1593359515
549,pangody,65.85,74.49,52.25,86,94,11.9,RU,1593359515
550,dong hoi,17.48,106.6,80.87,82,1,6.51,VN,1593359515
551,scarborough,54.28,-0.4,61.0,62,86,8.01,GB,1593359515
552,chippenham,51.46,-2.12,61.0,66,58,8.01,GB,1593359515
553,walvis bay,-22.96,14.51,77.0,22,0,8.05,NA,1593359515
554,sokur,55.21,83.32,55.4,76,50,6.71,RU,1593359515
555,coswig,51.13,13.58,78.8,54,20,10.29,DE,1593359515
556,at-bashi,41.17,75.81,45.57,55,45,5.61,KG,1593359516
557,hakodate,41.78,140.74,59.0,100,75,3.36,JP,1593359516
558,matara,5.95,80.54,80.53,85,87,9.84,LK,1593359347
559,jaltenango,15.87,-92.72,82.9,58,47,2.33,MX,1593359516
560,arica,-18.48,-70.3,62.6,67,0,12.75,CL,1593359235
561,seoul,37.57,126.98,73.4,94,74,2.24,KR,1593359459
